[
  {
    "id": "combust-vel-auto-posto-igarap-preto-br-364-55-68-99991-7659",
    "name": "Auto Posto Igarapé Preto BR 364",
    "category": "Combustível",
    "phone": "+5568999917659",
    "whatsapp": "",
    "address": "",
    "website": "",
    "source": "OpenStreetMap / Overpass",
    "lat": -7.7515466,
    "lon": -72.3916941,
    "city": "Cruzeiro do Sul",
    "state": "AC",
    "updatedAt": "2026-04-16T11:19:36.020Z",
    "firstSeenAt": "2026-04-16T11:19:36.020Z"
  },
  {
    "id": "combust-vel-auto-posto-santa-luzia-",
    "name": "Auto Posto Santa Luzia",
    "category": "Combustível",
    "phone": "",
    "whatsapp": "",
    "address": "",
    "website": "",
    "source": "OpenStreetMap / Overpass",
    "lat": -7.7422566,
    "lon": -72.4776254,
    "city": "Cruzeiro do Sul",
    "state": "AC",
    "updatedAt": "2026-04-16T11:19:36.020Z",
    "firstSeenAt": "2026-04-16T11:19:36.020Z"
  },
  {
    "id": "combust-vel-auto-posto-soda-rosa-",
    "name": "Auto Posto Soda Rosa",
    "category": "Combustível",
    "phone": "",
    "whatsapp": "",
    "address": "",
    "website": "",
    "source": "OpenStreetMap / Overpass",
    "lat": -22.9629261,
    "lon": -52.1598266,
    "city": "Cruzeiro do Sul",
    "state": "AC",
    "updatedAt": "2026-04-16T11:19:36.020Z",
    "firstSeenAt": "2026-04-16T11:19:36.020Z"
  },
  {
    "id": "restaurantes-casa-do-morro-",
    "name": "Casa do Morro",
    "category": "Restaurantes",
    "phone": "",
    "whatsapp": "",
    "address": "",
    "website": "",
    "source": "OpenStreetMap / Overpass",
    "lat": -29.5150439,
    "lon": -51.9863158,
    "city": "Cruzeiro do Sul",
    "state": "AC",
    "updatedAt": "2026-04-16T11:19:12.136Z",
    "firstSeenAt": "2026-04-16T11:19:12.136Z"
  },
  {
    "id": "restaurantes-do-vale-lanche-",
    "name": "Do Vale Lanche",
    "category": "Restaurantes",
    "phone": "",
    "whatsapp": "",
    "address": "",
    "website": "",
    "source": "OpenStreetMap / Overpass",
    "lat": -7.6370987,
    "lon": -72.6689131,
    "city": "Cruzeiro do Sul",
    "state": "AC",
    "updatedAt": "2026-04-16T11:19:12.136Z",
    "firstSeenAt": "2026-04-16T11:19:12.136Z"
  },
  {
    "id": "hospitais-e-cl-nicas-hospital-regional-do-juru-68-3322-5516",
    "name": "Hospital Regional do Juruá",
    "category": "Hospitais e Clínicas",
    "phone": "6833225516",
    "whatsapp": "",
    "address": "Avenida Vinte e Cinco de Agosto, 5121",
    "website": "",
    "source": "OpenStreetMap / Overpass",
    "lat": -7.5952475,
    "lon": -72.6832828,
    "city": "Cruzeiro do Sul",
    "state": "AC",
    "updatedAt": "2026-04-17T11:11:53.168Z",
    "firstSeenAt": "2026-04-17T11:11:53.168Z"
  },
  {
    "id": "hospitais-e-cl-nicas-hospital-s-o-gabriel-",
    "name": "Hospital São Gabriel",
    "category": "Hospitais e Clínicas",
    "phone": "",
    "whatsapp": "",
    "address": "",
    "website": "",
    "source": "OpenStreetMap / Overpass",
    "lat": -29.5133969,
    "lon": -51.9856822,
    "city": "Cruzeiro do Sul",
    "state": "AC",
    "updatedAt": "2026-04-17T11:11:53.168Z",
    "firstSeenAt": "2026-04-17T11:11:53.168Z"
  },
  {
    "id": "hospitais-e-cl-nicas-hospital-s-o-jo-o-batista-",
    "name": "Hospital São João Batista",
    "category": "Hospitais e Clínicas",
    "phone": "",
    "whatsapp": "",
    "address": "",
    "website": "",
    "source": "OpenStreetMap / Overpass",
    "lat": -28.6683063,
    "lon": -49.3641747,
    "city": "Cruzeiro do Sul",
    "state": "AC",
    "updatedAt": "2026-04-17T11:11:53.168Z",
    "firstSeenAt": "2026-04-17T11:11:53.168Z"
  },
  {
    "id": "combust-vel-petrobras-",
    "name": "PetroBras",
    "category": "Combustível",
    "phone": "",
    "whatsapp": "",
    "address": "",
    "website": "",
    "source": "OpenStreetMap / Overpass",
    "lat": -7.6355383,
    "lon": -72.6707701,
    "city": "Cruzeiro do Sul",
    "state": "AC",
    "updatedAt": "2026-04-16T11:19:36.020Z",
    "firstSeenAt": "2026-04-16T11:19:36.020Z"
  },
  {
    "id": "restaurantes-ponto-de-vista-55-51-3764-1287",
    "name": "Ponto de Vista",
    "category": "Restaurantes",
    "phone": "+555137641287",
    "whatsapp": "",
    "address": "",
    "website": "",
    "source": "OpenStreetMap / Overpass",
    "lat": -29.5150471,
    "lon": -51.9870376,
    "city": "Cruzeiro do Sul",
    "state": "AC",
    "updatedAt": "2026-04-16T11:19:12.136Z",
    "firstSeenAt": "2026-04-16T11:19:12.136Z"
  },
  {
    "id": "combust-vel-posto-charrua-",
    "name": "Posto Charrua",
    "category": "Combustível",
    "phone": "",
    "whatsapp": "",
    "address": "",
    "website": "",
    "source": "OpenStreetMap / Overpass",
    "lat": -29.5133558,
    "lon": -51.9841055,
    "city": "Cruzeiro do Sul",
    "state": "AC",
    "updatedAt": "2026-04-16T11:19:36.020Z",
    "firstSeenAt": "2026-04-16T11:19:36.020Z"
  },
  {
    "id": "combust-vel-posto-do-zeca-",
    "name": "Posto do Zeca",
    "category": "Combustível",
    "phone": "",
    "whatsapp": "",
    "address": "",
    "website": "",
    "source": "OpenStreetMap / Overpass",
    "lat": -29.5163198,
    "lon": -51.9973421,
    "city": "Cruzeiro do Sul",
    "state": "AC",
    "updatedAt": "2026-04-16T11:19:36.020Z",
    "firstSeenAt": "2026-04-16T11:19:36.020Z"
  },
  {
    "id": "combust-vel-posto-gasolina-",
    "name": "Posto gasolina",
    "category": "Combustível",
    "phone": "",
    "whatsapp": "",
    "address": "",
    "website": "",
    "source": "OpenStreetMap / Overpass",
    "lat": -7.7514702,
    "lon": -72.3882157,
    "city": "Cruzeiro do Sul",
    "state": "AC",
    "updatedAt": "2026-04-16T11:19:36.020Z",
    "firstSeenAt": "2026-04-16T11:19:36.020Z"
  },
  {
    "id": "combust-vel-posto-mate-amargo-",
    "name": "Posto Mate Amargo",
    "category": "Combustível",
    "phone": "",
    "whatsapp": "",
    "address": "",
    "website": "",
    "source": "OpenStreetMap / Overpass",
    "lat": -29.5172438,
    "lon": -52.0647884,
    "city": "Cruzeiro do Sul",
    "state": "AC",
    "updatedAt": "2026-04-16T11:19:36.020Z",
    "firstSeenAt": "2026-04-16T11:19:36.020Z"
  },
  {
    "id": "combust-vel-posto-soda-",
    "name": "Posto Soda",
    "category": "Combustível",
    "phone": "",
    "whatsapp": "",
    "address": "",
    "website": "",
    "source": "OpenStreetMap / Overpass",
    "lat": -22.9662947,
    "lon": -52.1625678,
    "city": "Cruzeiro do Sul",
    "state": "AC",
    "updatedAt": "2026-04-16T11:19:36.020Z",
    "firstSeenAt": "2026-04-16T11:19:36.020Z"
  },
  {
    "id": "hot-is-e-pousadas-pousada-juru-68-99912-5049",
    "name": "Pousada Juruá",
    "category": "Hotéis e Pousadas",
    "phone": "68999125049",
    "whatsapp": "",
    "address": "Rua Alfredo Teles, 1611-1727",
    "website": "",
    "source": "OpenStreetMap / Overpass",
    "lat": -7.6362015,
    "lon": -72.6717679,
    "city": "Cruzeiro do Sul",
    "state": "AC",
    "updatedAt": "2026-04-17T11:11:59.819Z",
    "firstSeenAt": "2026-04-17T11:11:59.819Z"
  },
  {
    "id": "restaurantes-restaurante-almanara-68-99911-6035",
    "name": "Restaurante Almanara",
    "category": "Restaurantes",
    "phone": "68999116035",
    "whatsapp": "",
    "address": "",
    "website": "",
    "source": "OpenStreetMap / Overpass",
    "lat": -7.6302156,
    "lon": -72.6744561,
    "city": "Cruzeiro do Sul",
    "state": "AC",
    "updatedAt": "2026-04-16T11:19:12.136Z",
    "firstSeenAt": "2026-04-16T11:19:12.136Z"
  },
  {
    "id": "restaurantes-restaurante-eul-lia-68-99943-2403",
    "name": "Restaurante Eulália",
    "category": "Restaurantes",
    "phone": "68999432403",
    "whatsapp": "",
    "address": "",
    "website": "",
    "source": "OpenStreetMap / Overpass",
    "lat": -7.6371689,
    "lon": -72.6690744,
    "city": "Cruzeiro do Sul",
    "state": "AC",
    "updatedAt": "2026-04-16T11:19:12.136Z",
    "firstSeenAt": "2026-04-16T11:19:12.136Z"
  },
  {
    "id": "restaurantes-restaurante-fam-lia-rosso-",
    "name": "Restaurante Família Rosso",
    "category": "Restaurantes",
    "phone": "",
    "whatsapp": "",
    "address": "",
    "website": "",
    "source": "OpenStreetMap / Overpass",
    "lat": -28.6611112,
    "lon": -49.3687415,
    "city": "Cruzeiro do Sul",
    "state": "AC",
    "updatedAt": "2026-04-16T11:19:12.136Z",
    "firstSeenAt": "2026-04-16T11:19:12.136Z"
  },
  {
    "id": "restaurantes-restaurante-sabor-da-regi-o-",
    "name": "Restaurante Sabor da Região",
    "category": "Restaurantes",
    "phone": "",
    "whatsapp": "",
    "address": "",
    "website": "",
    "source": "OpenStreetMap / Overpass",
    "lat": -7.7507603,
    "lon": -72.3917597,
    "city": "Cruzeiro do Sul",
    "state": "AC",
    "updatedAt": "2026-04-16T11:19:12.136Z",
    "firstSeenAt": "2026-04-16T11:19:12.136Z"
  }
]